[{"fro": {"name": "Chhatrapati Shivaji Maharaj Terminus", "location": {"latitude": 18.9409855, "longitude": 72.83324259999999}, "address": "Dhobi Talao, Chhatrapati Shivaji Terminus Area, Fort, Mumbai, Maharashtra 400001, India"}, "to": {"name": "Chhatrapati Shivaji Maharaj Terminus(CSMT)", "location": {"latitude": 18.939078, "longitude": 72.835505}, "address": "Chhatrapati Shivaji Maharaj Terminus Area, Chhatrapati Shivaji Terminus Area, Fort, Mumbai, Maharashtra 400001, India"}, "time": 365}, {"fro": {"name": "Chhatrapati Shivaji Maharaj Terminus", "location": {"latitude": 18.9409855, "longitude": 72.83324259999999}, "address": "Dhobi Talao, Chhatrapati Shivaji Terminus Area, Fort, Mumbai, Maharashtra 400001, India"}, "to": {"name": "Khadi Bhandar", "location": {"latitude": 18.937604999999998, "longitude": 72.83437599999999}, "address": "Dr Dadabhai Naoroji Rd, Azad Maidan, Fort, Mumbai, Maharashtra 400001, India"}, "time": 246}, {"fro": {"name": "Chhatrapati Shivaji Maharaj Terminus", "location": {"latitude": 18.9409855, "longitude": 72.83324259999999}, "address": "Dhobi Talao, Chhatrapati Shivaji Terminus Area, Fort, Mumbai, Maharashtra 400001, India"}, "to": {"name": "Chhatrapati Shivaji Maharaj Terminus", "location": {"latitude": 18.94088, "longitude": 72.83483}, "address": "Dhobi Talao, Chhatrapati Shivaji Terminus Area, Fort, Mumbai, Maharashtra 400001, India"}, "time": 505}, {"fro": {"name": "Chhatrapati Shivaji Maharaj Terminus(CSMT)", "location": {"latitude": 18.939078, "longitude": 72.835505}, "address": "Chhatrapati Shivaji Maharaj Terminus Area, Chhatrapati Shivaji Terminus Area, Fort, Mumbai, Maharashtra 400001, India"}, "to": {"name": "Chhatrapati Shivaji Maharaj Terminus", "location": {"latitude": 18.9409855, "longitude": 72.83324259999999}, "address": "Dhobi Talao, Chhatrapati Shivaji Terminus Area, Fort, Mumbai, Maharashtra 400001, India"}, "time": 272}, {"fro": {"name": "Chhatrapati Shivaji Maharaj Terminus(CSMT)", "location": {"latitude": 18.939078, "longitude": 72.835505}, "address": "Chhatrapati Shivaji Maharaj Terminus Area, Chhatrapati Shivaji Terminus Area, Fort, Mumbai, Maharashtra 400001, India"}, "to": {"name": "Khadi Bhandar", "location": {"latitude": 18.937604999999998, "longitude": 72.83437599999999}, "address": "Dr Dadabhai Naoroji Rd, Azad Maidan, Fort, Mumbai, Maharashtra 400001, India"}, "time": 111}, {"fro": {"name": "Chhatrapati Shivaji Maharaj Terminus(CSMT)", "location": {"latitude": 18.939078, "longitude": 72.835505}, "address": "Chhatrapati Shivaji Maharaj Terminus Area, Chhatrapati Shivaji Terminus Area, Fort, Mumbai, Maharashtra 400001, India"}, "to": {"name": "Chhatrapati Shivaji Maharaj Terminus", "location": {"latitude": 18.94088, "longitude": 72.83483}, "address": "Dhobi Talao, Chhatrapati Shivaji Terminus Area, Fort, Mumbai, Maharashtra 400001, India"}, "time": 623}, {"fro": {"name": "Khadi Bhandar", "location": {"latitude": 18.937604999999998, "longitude": 72.83437599999999}, "address": "Dr Dadabhai Naoroji Rd, Azad Maidan, Fort, Mumbai, Maharashtra 400001, India"}, "to": {"name": "Chhatrapati Shivaji Maharaj Terminus", "location": {"latitude": 18.9409855, "longitude": 72.83324259999999}, "address": "Dhobi Talao, Chhatrapati Shivaji Terminus Area, Fort, Mumbai, Maharashtra 400001, India"}, "time": 581}, {"fro": {"name": "Khadi Bhandar", "location": {"latitude": 18.937604999999998, "longitude": 72.83437599999999}, "address": "Dr Dadabhai Naoroji Rd, Azad Maidan, Fort, Mumbai, Maharashtra 400001, India"}, "to": {"name": "Chhatrapati Shivaji Maharaj Terminus(CSMT)", "location": {"latitude": 18.939078, "longitude": 72.835505}, "address": "Chhatrapati Shivaji Maharaj Terminus Area, Chhatrapati Shivaji Terminus Area, Fort, Mumbai, Maharashtra 400001, India"}, "time": 580}, {"fro": {"name": "Khadi Bhandar", "location": {"latitude": 18.937604999999998, "longitude": 72.83437599999999}, "address": "Dr Dadabhai Naoroji Rd, Azad Maidan, Fort, Mumbai, Maharashtra 400001, India"}, "to": {"name": "Chhatrapati Shivaji Maharaj Terminus", "location": {"latitude": 18.94088, "longitude": 72.83483}, "address": "Dhobi Talao, Chhatrapati Shivaji Terminus Area, Fort, Mumbai, Maharashtra 400001, India"}, "time": 862}, {"fro": {"name": "Chhatrapati Shivaji Maharaj Terminus", "location": {"latitude": 18.94088, "longitude": 72.83483}, "address": "Dhobi Talao, Chhatrapati Shivaji Terminus Area, Fort, Mumbai, Maharashtra 400001, India"}, "to": {"name": "Chhatrapati Shivaji Maharaj Terminus", "location": {"latitude": 18.9409855, "longitude": 72.83324259999999}, "address": "Dhobi Talao, Chhatrapati Shivaji Terminus Area, Fort, Mumbai, Maharashtra 400001, India"}, "time": 411}, {"fro": {"name": "Chhatrapati Shivaji Maharaj Terminus", "location": {"latitude": 18.94088, "longitude": 72.83483}, "address": "Dhobi Talao, Chhatrapati Shivaji Terminus Area, Fort, Mumbai, Maharashtra 400001, India"}, "to": {"name": "Chhatrapati Shivaji Maharaj Terminus(CSMT)", "location": {"latitude": 18.939078, "longitude": 72.835505}, "address": "Chhatrapati Shivaji Maharaj Terminus Area, Chhatrapati Shivaji Terminus Area, Fort, Mumbai, Maharashtra 400001, India"}, "time": 405}, {"fro": {"name": "Chhatrapati Shivaji Maharaj Terminus", "location": {"latitude": 18.94088, "longitude": 72.83483}, "address": "Dhobi Talao, Chhatrapati Shivaji Terminus Area, Fort, Mumbai, Maharashtra 400001, India"}, "to": {"name": "Khadi Bhandar", "location": {"latitude": 18.937604999999998, "longitude": 72.83437599999999}, "address": "Dr Dadabhai Naoroji Rd, Azad Maidan, Fort, Mumbai, Maharashtra 400001, India"}, "time": 287}]